time(millisecond),datetime(utc),latitude,longitude,height_above_takeoff(feet),height_above_ground_at_drone_location(feet),ground_elevation_at_drone_location(feet),altitude_above_seaLevel(feet),height_sonar(feet),speed(mph),distance(feet),mileage(feet),satellites,gpslevel,voltage(v),max_altitude(feet),max_ascent(feet),max_speed(mph),max_distance(feet), xSpeed(mph), ySpeed(mph), zSpeed(mph), compass_heading(degrees), pitch(degrees), roll(degrees),isPhoto,isVideo,rc_elevator,rc_aileron,rc_throttle,rc_rudder,rc_elevator(percent),rc_aileron(percent),rc_throttle(percent),rc_rudder(percent),gimbal_heading(degrees),gimbal_pitch(degrees),battery_percent,voltageCell1,voltageCell2,voltageCell3,voltageCell4,voltageCell5,voltageCell6,current(A),battery_temperature(f),altitude(feet),ascent(feet),flycStateRaw,flycState,message
0,2022-07-04 22:37:18,40.4412188631851,-79.946884943308,0,Available with any HD 360 subscription,Available with any HD 360 subscription,927.60764844985,0.328084,0,0,0,15,5,0,927.60764844985,0,0,0,0,0,0,196.6, 3.4, 4.9,0,0,1024,1024,1024,1024,0,0,0,0,197.2,-15.7,96,4.17,4.159,4.162,0,0,0,0,76.82,927.60764844985,0,41,Motors_Started,
100,2022-07-04 22:37:18,40.4412188079645,-79.9468849583074,0,,,927.60764844985,0.328084,0,0.0205731961964,0.0205731961964,15,5,0,927.60764844985,0,0,0.0205731961964,0,0,0,196.6, 3.4, 5,0,0,1024,1024,1024,1024,0,0,0,0,197.2,-15.7,96,4.17,4.159,4.162,0,0,0,0,76.82,927.60764844985,0,41,Motors_Started,
200,2022-07-04 22:37:18,40.4412187706785,-79.9468849446934,0,,,927.60764844985,0.328084,0,0.03375328192,0.034692586412,15,5,0,927.60764844985,0,0,0.03375328192,0,0,0,196.6, 3.4, 4.9,0,0,1024,1024,1024,1024,0,0,0,0,197.2,-15.7,96,4.17,4.159,4.162,0,0,0,0,76.82,927.60764844985,0,41,Motors_Started,
300,2022-07-04 22:37:18,40.4412187048112,-79.9468849600631,0,,,927.60764844985,0.328084,0,0.057969490044,0.059100067508,15,5,0,927.60764844985,0,0,0.057969490044,0,0,0,196.6, 3.4, 4.9,0,0,1024,1024,1024,1024,0,0,0,0,197.2,-15.7,96,4.17,4.159,4.162,0,0,0,0,76.82,927.60764844985,0,41,Motors_Started,
400,2022-07-04 22:37:18,40.4412186672401,-79.9468849472319,0,,,927.60764844985,0.328084,0,0.071498689952,0.073263453788,15,5,0,927.60764844985,0,0,0.071498689952,0,0,0,196.6, 3.3, 4.9,0,0,1024,1024,1024,1024,0,0,0,0,197.2,-15.7,96,4.17,4.159,4.162,0,0,0,0,76.82,927.60764844985,0,41,Motors_Started,
500,2022-07-04 22:37:18,40.4412186021457,-79.9468849641532,0,,,927.60764844985,0.328084,0,0.095415685468,0.097473428316,15,5,0,927.60764844985,0,0,0.095415685468,0,0,0,196.6, 3.4, 4.9,0,0,1024,1024,1024,1024,0,0,0,0,197.2,-15.7,96,4.17,4.159,4.162,0,0,0,0,76.82,927.60764844985,0,41,Motors_Started,
600,2022-07-04 22:37:18,40.4412185634617,-79.9468849525409,0,,,927.60764844985,0.328084,0,0.109383861768,0.111950790984,15,5,0,927.60764844985,0,0,0.109383861768,0,0,0,196.6, 3.3, 4.9,0,0,1024,1024,1024,1024,0,0,0,0,197.2,-15.7,96,4.17,4.159,4.162,0,0,0,0,76.82,927.60764844985,0,41,Motors_Started,
700,2022-07-04 22:37:18,40.4412185002798,-79.9468848080667,0,,,927.60764844985,0.328084,0,0.137628285244,0.158219165168,15,5,0,927.60764844985,0,0,0.137628285244,0,0,0,196.6, 3.3, 4.9,0,0,1024,1024,1024,1024,0,0,0,0,197.2,-15.7,96,4.17,4.159,4.162,0,0,0,0,76.82,927.60764844985,0,41,Motors_Started,"Setting new Return-To-Home altitude to 100m (328 ft). Data Recorder File Index is 37. Setting new Maximum Flight Altitude to 120m (394 ft)"
800,2022-07-04 22:37:18,40.4412184600861,-79.9468847833814,0,,,927.60764844985,0.328084,0,0.15362861384,0.174406829728,17,5,0,927.60764844985,0,0,0.15362861384,0,0,0,196.6, 3.5, 4.9,0,0,1024,1024,1024,1024,0,0,0,0,197.2,-15.7,96,4.17,4.159,4.162,0,0,0,0,76.82,927.60764844985,0,41,Motors_Started,
900,2022-07-04 22:37:19,40.441218390431,-79.9468848243158,0,,,927.60764844985,0.328084,0,0.175620412444,0.202246725632,17,5,0,927.60764844985,0,0,0.175620412444,0,0,0,196.6, 3.6, 5,0,0,1024,1024,1024,1024,0,0,0,0,197.2,-15.7,96,4.17,4.159,4.162,0,0,0,0,76.82,927.60764844985,0,41,Motors_Started,
1000,2022-07-04 22:37:19,40.4412183487832,-79.9468848028594,0,,,927.60764844985,0.328084,0,0.191688326344,0.21856792038,17,5,0,927.60764844985,0,0,0.191688326344,0,0,0,195.8, 3.2, 4.9,0,0,1024,1024,1024,1024,0,0,0,0,197.2,-15.7,96,4.17,4.159,4.162,0,0,0,0,76.82,927.60764844985,0,41,Motors_Started,
1100,2022-07-04 22:37:19,40.4412179877493,-79.94688453709,0,,,927.60764844985,0.328084,0,0.33873360664,0.3695538176,17,5,0,927.60764844985,0,0,0.33873360664,0,0,0,195.5, 3.1, 4.9,0,0,1024,1024,1024,1024,0,0,0,0,197.2,-15.7,96,4.17,4.159,4.162,0,0,0,0,76.82,927.60764844985,0,41,Motors_Started,
1200,2022-07-04 22:37:19,40.4412179146571,-79.9468844959009,0,,,927.60764844985,0.328084,0,0.36769358132,0.3985728474,17,5,0,927.60764844985,0,0,0.36769358132,0,0,0,195.4, 3.1, 4.9,0,0,1024,1024,1024,1024,0,0,0,0,197.2,-15.7,96,4.17,4.159,4.162,0,0,0,0,76.82,927.60764844985,0,41,Motors_Started,
1300,2022-07-04 22:37:19,40.4412178860713,-79.9468842431221,0,,,927.60764844985,0.328084,0,0.4060695668,0.46953413576,17,5,0,927.60764844985,0,0,0.4060695668,0,0,0,195.4, 3, 4.9,0,0,1024,1024,1024,1024,0,0,0,0,197.2,-15.7,96,4.17,4.159,4.162,0,0,0,0,76.82,927.60764844985,0,41,Motors_Started,
1400,2022-07-04 22:37:19,40.4412178157077,-79.9468841760889,0,,,927.60764844985,0.328084,0,0.43753938408,0.50124345436,17,5,0,927.60764844985,0,0,0.43753938408,0,0,0,195.4, 3.1, 4.9,0,0,1024,1024,1024,1024,0,0,0,0,197.1,-15.7,96,4.17,4.159,4.162,0,0,0,0,76.82,927.60764844985,0,41,Motors_Started,
1500,2022-07-04 22:37:19,40.4412174578549,-79.9468841355349,0,,,927.60764844985,0.328084,0,0.55964896804,0.63229004648,17,5,0,927.60764844985,0,0,0.55964896804,0,0,0,195.4, 3.1, 4.9,0,0,1024,1024,1024,1024,0,0,0,0,197.1,-15.7,96,4.17,4.159,4.162,0,0,0,0,76.82,927.60764844985,0,11,AutoTakeoff,
1600,2022-07-04 22:37:19,40.4412173613719,-79.9468840657489,0,,,927.60764844985,0.328084,0,0.59967521604,0.6724737748,17,5,0,927.60764844985,0,0,0.59967521604,0,0,0,195.4, 3.1, 4.9,0,0,1024,1024,1024,1024,0,0,0,0,197.1,-15.7,96,4.17,4.159,4.162,0,0,0,0,76.82,927.60764844985,0,11,AutoTakeoff,
1700,2022-07-04 22:37:19,40.4412172338752,-79.946883861281,0,,,927.60764844985,0.328084,0,0.66606629428,0.74587272728,17,5,0,927.60764844985,0,0,0.66606629428,0,0,0,195.4, 3, 4.8,0,0,1024,1024,1024,1024,0,0,0,0,197.1,-15.7,96,4.17,4.159,4.162,0,0,0,0,76.82,927.60764844985,0,11,AutoTakeoff,
1800,2022-07-04 22:37:19,40.4412171311946,-79.9468837742406,0,,,927.60764844985,0.328084,0,0.71041997024,0.79045606204,17,5,12.587,927.60764844985,0,0,0.71041997024,0,0,0,195.4, 2.9, 4.8,0,0,1024,1024,1024,1024,0,0,0,0,197,-15.7,96,4.215,4.198,4.196,0,0,0,2.121,76.82,927.60764844985,0,11,AutoTakeoff,
1900,2022-07-04 22:37:20,40.4412170191538,-79.9468836096919,0,,,927.60764844985,0.328084,0,0.76797246552,0.85176183828,17,5,12.587,927.60764844985,0,0,0.76797246552,0,0,0,195, 2.7, 4.8,0,0,1024,1024,1024,1024,0,0,0,0,197,-15.7,96,4.215,4.198,4.196,0,0,0,2.121,76.82,927.60764844985,0,11,AutoTakeoff,
2000,2022-07-04 22:37:20,40.4412169339813,-79.9468835429139,0,,,927.60764844985,0.328084,0,0.80414044568,0.88794950348,17,5,12.587,927.60764844985,0,0,0.80414044568,0,0,0,193.3, 1.1, 4.5,0,0,1024,1024,1024,1024,0,0,0,0,196.9,-15.7,96,4.215,4.198,4.196,0,0,0,2.121,76.82,927.60764844985,0,11,AutoTakeoff,
2100,2022-07-04 22:37:20,40.4412168655305,-79.9468836515971,0,,,927.60764844985,0.328084,0,0.8123195798,0.92712273308,17,5,12.587,927.60764844985,0,0,0.8123195798,0,0,0,191.2, -1.5, 2.8,0,0,1024,1024,1024,1024,0,0,0,0,196.6,-15.7,96,4.215,4.198,4.196,0,0,0,2.121,76.82,927.60764844985,0,11,AutoTakeoff,
2200,2022-07-04 22:37:20,40.4412167828464,-79.9468837122856,0,,,927.60764844985,0.328084,0.223694,0.832431129,0.96167653996,17,5,12.587,927.60764844985,0,0.223694,0.832431129,0,-0.223694,-0.447388,190.9, -2.3, 0.4,0,0,1024,1024,1024,1024,0,0,0,0,196.1,-15.7,96,4.215,4.198,4.196,0,0,0,2.121,76.82,927.60764844985,0,11,AutoTakeoff,
2300,2022-07-04 22:37:20,40.4412166989282,-79.9468836240427,0,,,927.60764844985,0.328084,0.223694,0.87046590712,1.00089242048,17,5,12.587,927.60764844985,0,0.223694,0.87046590712,0,-0.223694,-0.671082,191, -1, -0.7,0,0,1024,1024,1024,1024,0,0,0,0,195.7,-15.7,96,4.215,4.198,4.196,0,0,0,2.121,76.82,927.60764844985,0,11,AutoTakeoff,
2400,2022-07-04 22:37:20,40.4412165825053,-79.9468837191822,0,,,927.60764844985,0.328084,0.223694,0.89885501564,1.05091538796,17,5,12.587,927.60764844985,0,0.223694,0.89885501564,0,-0.223694,-0.671082,190.9, 0.1, -1.6,0,0,1024,1024,1024,1024,0,0,0,0,195.3,-15.7,96,4.215,4.198,4.196,0,0,0,2.121,76.82,927.60764844985,0,11,AutoTakeoff,
2500,2022-07-04 22:37:20,40.4412165911176,-79.9468838464334,0.328084,,,927.93573244985,0.328084,0.223694,0.88314635372,1.08638783004,17,5,12.587,927.93573244985,0.328084,0.223694,0.89885501564,0,-0.223694,-0.894776,191, 0.2, -1.5,0,0,1024,1024,1024,1024,0,0,0,0,195,-15.7,96,4.215,4.198,4.196,0,0,0,2.121,76.82,927.93573244985,0.328084,11,AutoTakeoff,
2600,2022-07-04 22:37:20,40.4412164994324,-79.9468838829582,0.328084,,,927.93573244985,0.328084,0.223694,0.91128939924,1.1213418994,17,5,12.587,927.93573244985,0.328084,0.223694,0.91128939924,0,-0.223694,-0.894776,191, 0, -1.3,0,0,1024,1024,1024,1024,0,0,0,0,194.8,-15.7,96,4.215,4.198,4.196,0,0,0,2.121,76.82,927.93573244985,0.328084,11,AutoTakeoff,
2700,2022-07-04 22:37:20,40.4412163593019,-79.9468842289933,0.656168,,,928.26381644985,0.656168,0.223694,0.9348261454,1.2301837664,17,5,12.587,928.26381644985,0.656168,0.223694,0.9348261454,0,-0.223694,-0.894776,191.1, -0.3, -1.7,0,0,1024,1024,1024,1024,0,0,0,0,194.6,-15.7,96,4.215,4.198,4.196,0,0,0,2.121,76.82,928.26381644985,0.656168,11,AutoTakeoff,
2800,2022-07-04 22:37:20,40.4412162850407,-79.9468842493341,0.656168,,,928.26381644985,0.984252,0,0.9601706344,1.25786093264,17,5,12.478,928.26381644985,0.656168,0.223694,0.9601706344,0,0,-0.894776,191, -0.7, -2.6,0,0,1024,1024,1024,1024,0,0,0,0,194.4,-15.7,96,4.078,4.064,4.068,0,0,0,3.785,76.82,928.26381644985,0.656168,11,AutoTakeoff,
2900,2022-07-04 22:37:21,40.4412164047952,-79.9468840226306,0.984252,,,928.59190044985,0.984252,0,0.93266407184,1.33448823168,17,5,12.478,928.59190044985,0.984252,0.223694,0.9601706344,0,0,-0.894776,191, -0.9, -2.6,0,0,1024,1024,1024,1024,0,0,0,0,194.3,-15.7,96,4.078,4.064,4.068,0,0,0,3.785,76.82,928.59190044985,0.984252,11,AutoTakeoff,"Home Point updated. RTH altitude adjusted to 100 m (Code: 120852)"
3000,2022-07-04 22:37:21,40.4412163547404,-79.946883945066,0.984252,,,928.59190044985,1.312336,0,0.95625987312,1.36272642156,17,5,12.478,928.59190044985,0.984252,0.223694,0.9601706344,0,0,-0.894776,191.1, -1.1, -2,0,0,1024,1024,1024,1024,0,0,0,0,194.1,-15.7,96,4.078,4.064,4.068,0,0,0,3.785,76.82,928.59190044985,0.984252,11,AutoTakeoff,
3100,2022-07-04 22:37:21,40.4412162402016,-79.9468839979362,1.312336,,,928.91998444985,1.312336,0,0.99234583228,1.4070210424,17,5,12.478,928.91998444985,1.312336,0.223694,0.99234583228,0,0,-1.11847,191, -1.3, -1.1,0,0,1024,1024,1024,1024,0,0,0,0,194,-15.7,96,4.078,4.064,4.068,0,0,0,3.785,76.82,928.91998444985,1.312336,11,AutoTakeoff,
3200,2022-07-04 22:37:21,40.4412161832667,-79.9468838774437,1.312336,,,928.91998444985,1.64042,0,1.02157811668,1.44640096492,17,5,12.478,928.91998444985,1.312336,0.223694,1.02157811668,0,0,-1.11847,191, -1.4, -0.6,0,0,1024,1024,1024,1024,0,0,0,0,193.9,-15.7,96,4.078,4.064,4.068,0,0,0,3.785,76.82,928.91998444985,1.312336,11,AutoTakeoff,
3300,2022-07-04 22:37:21,40.4412161600964,-79.9468839176254,1.64042,,,929.24806844985,1.64042,0,1.02652234256,1.4604003092,17,5,12.478,929.24806844985,1.64042,0.223694,1.02652234256,0,0,-1.11847,191, -1.7, -0.8,0,0,1024,1024,1024,1024,0,0,0,0,193.8,-15.7,96,4.078,4.064,4.068,0,0,0,3.785,76.82,929.24806844985,1.64042,11,AutoTakeoff,
3400,2022-07-04 22:37:21,40.4412161039702,-79.9468838094127,1.64042,,,929.24806844985,1.968504,0,1.05478677916,1.49676185892,17,5,12.478,929.24806844985,1.64042,0.223694,1.05478677916,0,0,-0.894776,191, -2, -1.1,0,0,1024,1024,1024,1024,0,0,0,0,193.7,-15.7,96,4.078,4.064,4.068,0,0,0,3.785,76.82,929.24806844985,1.64042,11,AutoTakeoff,
3500,2022-07-04 22:37:21,40.441216219603,-79.9468839049509,1.968504,,,929.57615244985,1.968504,0,1.00668310308,1.54659781852,17,5,12.478,929.57615244985,1.968504,0.223694,1.05478677916,0,0,-0.894776,191.1, -2.2, -1.4,0,0,1024,1024,1024,1024,0,0,0,0,193.7,-15.7,96,4.078,4.064,4.068,0,0,0,3.785,76.82,929.57615244985,1.968504,11,AutoTakeoff,
3600,2022-07-04 22:37:21,40.4412161488011,-79.9468838037602,1.968504,,,929.57615244985,2.296588,0,1.0396653876,1.58476711108,17,5,12.478,929.57615244985,1.968504,0.223694,1.05478677916,0,0,-0.894776,191.1, -2, -1.1,0,0,1024,1024,1024,1024,0,0,0,0,193.6,-15.7,96,4.078,4.064,4.068,0,0,0,3.785,76.82,929.57615244985,1.968504,11,AutoTakeoff,
3700,2022-07-04 22:37:21,40.4412163494637,-79.94688350953,2.296588,,,929.90423644985,2.296588,0,0.99981630496,1.694471839,17,5,12.478,929.90423644985,2.296588,0.223694,1.05478677916,0,0,-0.894776,190.9, -1.5, -1.1,0,0,1024,1024,1024,1024,0,0,0,0,193.5,-15.7,96,4.078,4.064,4.068,0,0,0,3.785,76.82,929.90423644985,2.296588,11,AutoTakeoff,
3800,2022-07-04 22:37:21,40.4412162775366,-79.9468833890769,2.296588,,,929.90423644985,2.624672,0,1.03740488884,1.73698496372,17,5,12.272,929.90423644985,2.296588,0.223694,1.05478677916,0,0,-0.894776,191, -1.1, -0.9,0,0,1024,1024,1024,1024,0,0,0,0,193.5,-15.7,96,4.07,4.057,4.062,0,0,0,4.646,76.82,929.90423644985,2.296588,11,AutoTakeoff,
3900,2022-07-04 22:37:22,40.4412162808276,-79.9468836145037,2.296588,,,929.90423644985,2.952756,0,1.01184714524,1.7995899526,17,5,12.272,929.90423644985,2.296588,0.223694,1.05478677916,0,0,-0.894776,190.9, -1.1, -0.9,0,0,1024,1024,1024,1024,0,0,0,0,193.4,-15.7,96,4.07,4.057,4.062,0,0,0,4.646,76.82,929.90423644985,2.296588,11,AutoTakeoff,
4000,2022-07-04 22:37:22,40.4412162167952,-79.9468835291025,2.624672,,,930.23232044985,2.952756,0,1.04233599136,1.83288063608,17,5,12.272,930.23232044985,2.624672,0.223694,1.05478677916,0,0,-1.11847,191, -0.9, -1,0,0,1024,1024,1024,1024,0,0,0,0,193.3,-15.7,96,4.07,4.057,4.062,0,0,0,4.646,76.82,930.23232044985,2.624672,11,AutoTakeoff,
4100,2022-07-04 22:37:22,40.4412161392886,-79.9468835776519,2.624672,,,930.23232044985,3.28084,0,1.06370410228,1.8642060964,17,5,12.272,930.23232044985,2.624672,0.223694,1.06370410228,0,0,-1.11847,190.9, -0.7, -0.9,0,0,1024,1024,1024,1024,0,0,0,0,193.3,-15.7,96,4.07,4.057,4.062,0,0,0,4.646,76.82,930.23232044985,2.624672,11,AutoTakeoff,
4200,2022-07-04 22:37:22,40.4412160805342,-79.9468835092656,2.952756,,,930.56040444985,3.28084,0,1.09054793516,1.89284454876,17,5,12.272,930.56040444985,2.952756,0.223694,1.09054793516,0,0,-1.11847,191, -0.6, -0.9,0,0,1024,1024,1024,1024,0,0,0,0,193.2,-15.7,96,4.07,4.057,4.062,0,0,0,4.646,76.82,930.56040444985,2.952756,11,AutoTakeoff,
4300,2022-07-04 22:37:22,40.4412163972533,-79.9468835436683,2.952756,,,930.56040444985,3.28084,0,0.98004924396,2.0087927152,17,5,12.272,930.56040444985,2.952756,0.223694,1.09054793516,0,0,-0.894776,190.9, -0.7, -0.8,0,0,1024,1024,1024,1024,0,0,0,0,193.2,-15.7,96,4.07,4.057,4.062,0,0,0,4.646,76.82,930.56040444985,2.952756,11,AutoTakeoff,
4400,2022-07-04 22:37:22,40.4412163825874,-79.9468834906322,3.28084,,,930.88848844985,3.608924,0,0.99086617344,2.02446200704,16,5,12.272,930.88848844985,3.28084,0.223694,1.09054793516,0,0,-0.894776,191, -0.7, -1,0,0,1024,1024,1024,1024,0,0,0,0,193.2,-15.7,96,4.07,4.057,4.062,0,0,0,4.646,76.82,930.88848844985,3.28084,6,P-GPS,
4500,2022-07-04 22:37:22,40.4412164896418,-79.9468834926872,3.28084,,,930.88848844985,3.608924,0,0.95508205156,2.06352696892,16,5,12.272,930.88848844985,3.28084,0.223694,1.09054793516,0,0,-0.671082,190.7, -0.4, -1.1,0,0,1209,1024,1024,1024,28,0,0,0,193.2,-15.7,96,4.07,4.057,4.062,0,0,0,4.646,76.82,930.88848844985,3.28084,6,P-GPS,
4600,2022-07-04 22:37:22,40.4412164989113,-79.9468834478661,3.608924,,,931.21657244985,3.937008,0,0.957349112,2.07642395096,17,5,12.272,931.21657244985,3.608924,0.223694,1.09054793516,0,0,-0.447388,190.7, -0.5, -0.9,0,0,1209,1024,1024,1024,28,0,0,0,193.2,-15.7,96,4.07,4.057,4.062,0,0,0,4.646,76.82,931.21657244985,3.608924,6,P-GPS,
4700,2022-07-04 22:37:22,40.4412168932051,-79.9468835800057,3.608924,,,931.21657244985,3.937008,0,0.81234254568,2.2248852418,17,5,12.272,931.21657244985,3.608924,0.223694,1.09054793516,0,0,-0.223694,190.8, -2.1, -0.7,0,0,1323,1024,1024,1024,45,0,0,0,193.2,-15.7,96,4.07,4.057,4.062,0,0,0,4.646,76.82,931.21657244985,3.608924,6,P-GPS,
4800,2022-07-04 22:37:22,40.4412169390215,-79.9468835685113,3.608924,,,931.21657244985,3.937008,0,0.79911091796,2.24190623972,17,5,12.2,931.21657244985,3.608924,0.223694,1.09054793516,0,0,0,191, -6.7, -0.7,0,0,1024,1024,1024,1024,0,0,0,0,193.2,-15.7,96,4.084,4.076,4.08,0,0,0,7.052,76.82,931.21657244985,3.608924,6,P-GPS,
4900,2022-07-04 22:37:23,40.4412173140211,-79.9468833841318,3.608924,,,931.21657244985,3.937008,0.223694,0.7119750884,2.38798892156,17,5,12.2,931.21657244985,3.608924,0.223694,1.09054793516,-0.223694,0,0,191.1, -6, -0.9,0,0,1024,1024,1024,1024,0,0,0,0,193.2,-15.7,96,4.084,4.076,4.08,0,0,0,7.052,76.82,931.21657244985,3.608924,6,P-GPS,
5000,2022-07-04 22:37:23,40.4412172710927,-79.9468834122573,3.608924,,,931.21657244985,3.937008,0.223694,0.71982941936,2.40548892212,17,5,12.2,931.21657244985,3.608924,0.223694,1.09054793516,-0.223694,0,0,191.2, -0.9, -0.9,0,0,1024,1024,1024,1024,0,0,0,0,193.2,-15.7,96,4.084,4.076,4.08,0,0,0,7.052,76.82,931.21657244985,3.608924,6,P-GPS,
5100,2022-07-04 22:37:23,40.4412174561157,-79.9468834342588,3.608924,,,931.21657244985,4.265092,0.223694,0.66267062488,2.47327107652,17,5,12.2,931.21657244985,3.608924,0.223694,1.09054793516,-0.223694,0,0,191.2, 0.7, -1,0,0,1024,1024,1024,1024,0,0,0,0,193.2,-15.7,96,4.084,4.076,4.08,0,0,0,7.052,76.82,931.21657244985,3.608924,6,P-GPS,
5200,2022-07-04 22:37:23,40.4412174475751,-79.9468834751509,3.608924,,,931.21657244985,4.265092,0.223694,0.65799214704,2.48504601128,17,5,12.2,931.21657244985,3.608924,0.223694,1.09054793516,-0.223694,0,0,191.2, 1.1, -1,0,0,1024,1024,1024,1024,0,0,0,0,193.2,-15.7,96,4.084,4.076,4.08,0,0,0,7.052,76.82,931.21657244985,3.608924,6,P-GPS,
5300,2022-07-04 22:37:23,40.4412175648784,-79.946883564158,3.608924,,,931.21657244985,3.937008,0.223694,0.60912731608,2.53446858504,17,5,12.2,931.21657244985,3.608924,0.223694,1.09054793516,-0.223694,0,0,191.3, 0.9, -1,0,0,1024,1024,1028,1024,0,0,1,0,193.2,-15.7,96,4.084,4.076,4.08,0,0,0,7.052,76.82,931.21657244985,3.608924,6,P-GPS,
5400,2022-07-04 22:37:23,40.4412176331856,-79.9468836042171,3.608924,,,931.21657244985,3.937008,0,0.58279529424,2.56175861216,17,5,12.2,931.21657244985,3.608924,0.223694,1.09054793516,0,0,0,191.3, 1.3, -1.1,0,0,1024,1024,1108,1024,0,0,13,0,193.2,-15.7,96,4.084,4.076,4.08,0,0,0,7.052,76.82,931.21657244985,3.608924,6,P-GPS,
5500,2022-07-04 22:37:23,40.4412177674979,-79.9468836905117,3.608924,,,931.21657244985,3.937008,0,0.52992783848,2.61630913884,17,5,12.2,931.21657244985,3.608924,0.223694,1.09054793516,0,0,0,191.3, 1.6, -1.5,0,0,1024,1024,1108,1024,0,0,13,0,193.2,-15.7,96,4.084,4.076,4.08,0,0,0,7.052,76.82,931.21657244985,3.608924,6,P-GPS,
5600,2022-07-04 22:37:23,40.4412179159539,-79.9468837108083,3.608924,,,931.21657244985,3.937008,0,0.48637796832,2.67076452116,17,5,12.2,931.21657244985,3.608924,0.223694,1.09054793516,0,0,0,191.3, 0.5, -1.4,0,0,1024,1024,1454,1024,0,0,65,0,193.2,-15.7,96,4.084,4.076,4.08,0,0,0,7.052,76.82,931.21657244985,3.608924,6,P-GPS,
5700,2022-07-04 22:37:23,40.4412178846259,-79.9468837189061,3.608924,,,931.21657244985,3.937008,0,0.4930118268,2.682414784,17,5,12.2,931.21657244985,3.608924,0.223694,1.09054793516,0,0,-0.447388,191.2, -0.6, -0.7,0,0,1024,1024,1454,1024,0,0,65,0,193.2,-15.7,96,4.084,4.076,4.08,0,0,0,7.052,76.82,931.21657244985,3.608924,6,P-GPS,
5800,2022-07-04 22:37:24,40.4412180499407,-79.946883721903,3.608924,,,931.21657244985,4.265092,0,0.45062665484,2.7427330274,17,5,12.18,931.21657244985,3.608924,0.223694,1.09054793516,0,0,-1.565858,191.2, -0.8, -0.4,0,0,1024,1024,1454,1024,0,0,65,0,193.2,-15.7,96,3.982,3.957,3.96,0,0,0,7.026,76.82,931.21657244985,3.608924,6,P-GPS,
5900,2022-07-04 22:37:24,40.4412179902862,-79.9468837592901,3.937008,,,931.54465644985,4.593176,0,0.45773295428,2.7668472014,17,5,12.18,931.54465644985,3.937008,0.223694,1.09054793516,0,0,-2.684328,191.4, -0.6, -0.5,0,0,1024,1024,1446,1024,0,0,64,0,193.2,-15.7,96,3.982,3.957,3.96,0,0,0,7.026,76.82,931.54465644985,3.937008,6,P-GPS,
6000,2022-07-04 22:37:24,40.4412181360276,-79.9468837830127,4.593176,,,932.20082444985,4.92126,0,0.41736221808,2.82042988028,17,5,12.18,932.20082444985,4.593176,0.223694,1.09054793516,0,0,-3.802798,191.5, 0, -0.9,0,0,1024,1024,1474,1024,0,0,68,0,193.2,-15.7,96,3.982,3.957,3.96,0,0,0,7.026,76.82,932.20082444985,4.593176,6,P-GPS,
6100,2022-07-04 22:37:24,40.4412178955693,-79.9468835795155,5.249344,,,932.85699244985,5.577428,0,0.51772639452,2.92478355816,17,5,12.18,932.85699244985,5.249344,0.223694,1.09054793516,0,0,-4.697574,191.4, 0.3, -1.1,0,0,1024,1024,1470,1024,0,0,68,0,193.2,-15.7,96,3.982,3.957,3.96,0,0,0,7.026,76.82,932.85699244985,5.249344,6,P-GPS,
6200,2022-07-04 22:37:24,40.4412180312554,-79.9468835616786,5.905512,,,933.51316044985,6.56168,0,0.48919620988,2.97453421592,17,5,12.18,933.51316044985,5.905512,0.223694,1.09054793516,0,0,-5.59235,191.3, 0.2, -1.2,0,0,1024,1024,1219,1024,0,0,30,0,193.2,-15.7,96,3.982,3.957,3.96,0,0,0,7.026,76.82,933.51316044985,5.905512,6,P-GPS,
6300,2022-07-04 22:37:24,40.4412178403944,-79.9468836949009,6.889764,,,934.49741244985,7.545932,0,0.5093340058,3.05338592448,17,5,12.18,934.49741244985,6.889764,0.223694,1.09054793516,0,0,-6.039738,191.3, -0.2, -1,0,0,1024,1024,1024,1024,0,0,0,0,193.2,-15.7,96,3.982,3.957,3.96,0,0,0,7.026,76.82,934.49741244985,6.889764,6,P-GPS,
6400,2022-07-04 22:37:24,40.4412179940972,-79.9468836443988,7.874016,,,935.48166444985,8.530184,0,0.48023951668,3.11119104444,17,5,12.18,935.48166444985,7.874016,0.223694,1.09054793516,0,0,-5.59235,191.3, -0.5, -0.7,0,0,1024,1024,1024,1024,0,0,0,0,193.2,-15.7,96,3.982,3.957,3.96,0,0,0,7.026,76.82,935.48166444985,7.874016,6,P-GPS,
6500,2022-07-04 22:37:24,40.4412178712538,-79.946883686715,8.530184,,,936.13783244985,9.186352,0,0.50271655152,3.15752634776,17,5,12.18,936.13783244985,8.530184,0.223694,1.09054793516,0,0,-4.921268,191.4, -0.8, -0.2,0,0,1024,1024,1100,1024,0,0,12,0,193.2,-15.7,96,3.982,3.957,3.96,0,0,0,7.026,76.82,936.13783244985,8.530184,6,P-GPS,
6600,2022-07-04 22:37:24,40.44121802519,-79.9468836145413,9.186352,,,936.79400044985,9.84252,0,0.4791830862,3.21715561476,17,5,12.18,936.79400044985,9.186352,0.223694,1.09054793516,0,0,-4.026492,191.6, -1.3, 0.2,0,0,1024,1024,1302,1024,0,0,42,0,193.2,-15.7,96,3.982,3.957,3.96,0,0,0,7.026,76.82,936.79400044985,9.186352,6,P-GPS,
6700,2022-07-04 22:37:24,40.4412181992819,-79.9468832235067,9.84252,,,937.45016844985,10.498688,0,0.5354658964,3.3429463012,17,5,12.18,937.45016844985,9.84252,0.223694,1.09054793516,0,0,-3.131716,191.7, -1.9, 0.5,0,0,1024,1024,1364,1024,0,0,52,0,193.2,-15.7,96,3.982,3.957,3.96,0,0,0,7.026,76.82,937.45016844985,9.84252,6,P-GPS,
6800,2022-07-04 22:37:24,40.441218367996,-79.9468831096056,10.170604,,,937.77825244985,10.826772,0,0.54027888868,3.4121720252,17,5,12.18,937.77825244985,10.170604,0.223694,1.09054793516,0,0,-3.35541,191.8, -2, 0.1,0,0,1024,1024,1360,1024,0,0,51,0,193.2,-15.7,96,3.982,3.957,3.96,0,0,0,7.026,76.82,937.77825244985,10.170604,6,P-GPS,
6900,2022-07-04 22:37:25,40.4412184242885,-79.9468832016507,10.826772,,,938.43442044985,11.48294,0,0.50943899268,3.4449476168,17,5,12.18,938.43442044985,10.826772,0.223694,1.09054793516,0,0,-3.579104,191.9, -2.2, 0.7,0,0,1024,1024,1359,1024,0,0,51,0,193.2,-15.7,96,4.141,4.075,4.005,0,0,0,6.454,77,938.43442044985,10.826772,6,P-GPS,
7000,2022-07-04 22:37:25,40.4412185722291,-79.9468830966254,11.154856,,,938.76250444985,12.139108,0,0.5236548724,3.5062993248,17,5,12.18,938.76250444985,11.154856,0.223694,1.09054793516,0,0,-3.579104,192, -2.4, 1,0,0,1024,1024,1348,1024,0,0,49,0,193.2,-15.7,96,4.141,4.075,4.005,0,0,0,6.454,77,938.76250444985,11.154856,6,P-GPS,
7100,2022-07-04 22:37:25,40.4412187083991,-79.9468827876804,11.811024,,,939.41867244985,12.467192,0,0.60122705336,3.6054463096,17,5,12.18,939.41867244985,11.811024,0.223694,1.09054793516,0,0,-3.579104,192.1, -2.4, 1.3,0,0,1024,1024,1348,1024,0,0,49,0,193.2,-15.7,96,4.141,4.075,4.005,0,0,0,6.454,77,939.41867244985,11.811024,6,P-GPS,
7200,2022-07-04 22:37:25,40.4412188589326,-79.9468826796322,12.467192,,,940.07484044985,13.12336,0,0.62857285476,3.6680119284,17,5,12.18,940.07484044985,12.467192,0.223694,1.09054793516,0,0,-3.579104,192.3, -2.8, 1.4,0,0,1024,1024,1348,1024,0,0,49,0,193.2,-15.7,96,4.141,4.075,4.005,0,0,0,6.454,77,940.07484044985,12.467192,6,P-GPS,
7300,2022-07-04 22:37:25,40.4412190097265,-79.9468822996623,12.795276,,,940.40292444985,13.779528,0,0.7360236456,3.7870079952,17,5,12.18,940.40292444985,12.795276,0.223694,1.09054793516,0,0,-3.35541,192.4, -3.2, 1.5,0,0,1024,1024,1347,1024,0,0,49,0,193.2,-15.7,96,4.141,4.075,4.005,0,0,0,6.454,77,940.40292444985,12.795276,6,P-GPS,
7400,2022-07-04 22:37:25,40.4412191681883,-79.9468821966314,13.451444,,,941.05909244985,14.435696,0,0.77076446036,3.8515093096,17,5,12.18,941.05909244985,13.451444,0.223694,1.09054793516,0,0,-3.35541,192.5, -3.6, 1.2,0,0,1024,1024,1339,1024,0,0,48,0,193.2,-15.7,96,4.141,4.075,4.005,0,0,0,6.454,77,941.05909244985,13.451444,6,P-GPS,
7500,2022-07-04 22:37:25,40.4412188551846,-79.9468822288373,13.779528,,,941.38717644985,14.76378,0,0.75375002412,3.966043434,17,5,12.18,941.38717644985,13.779528,0.223694,1.09054793516,0,0,-3.35541,192.5, -3.9, 1.8,0,0,1024,1024,1337,1024,0,0,47,0,193.2,-15.7,96,4.141,4.075,4.005,0,0,0,6.454,77,941.38717644985,13.779528,6,P-GPS,
7600,2022-07-04 22:37:25,40.4412189610773,-79.9468821664614,14.435696,,,942.04334444985,15.419948,0,0.77189306932,4.0083990784,17,5,12.18,942.04334444985,14.435696,0.223694,1.09054793516,0,0,-3.131716,192.6, -3.8, 1.3,0,0,1024,1024,1333,1024,0,0,47,0,193.2,-15.7,96,4.141,4.075,4.005,0,0,0,6.454,77,942.04334444985,14.435696,6,P-GPS,
7700,2022-07-04 22:37:25,40.441218522562,-79.9468828202496,14.76378,,,942.37142844985,16.076116,0,0.60248033424,4.2503938368,17,5,12.18,942.37142844985,14.76378,0.223694,1.09054793516,0,0,-3.131716,192.5, -4.1, 1,0,0,1024,1024,1328,1024,0,0,46,0,193.2,-15.7,96,4.141,4.075,4.005,0,0,0,6.454,77,942.37142844985,14.76378,6,P-GPS,
7800,2022-07-04 22:37:25,40.4412185680409,-79.9468828504579,15.419948,,,943.02759644985,16.4042,0,0.5910269218,4.2689633912,16,5,11.84,943.02759644985,15.419948,0.223694,1.09054793516,0,0,-3.131716,192.4, -4.1, 0.8,0,0,1024,1024,1312,1024,0,0,44,0,193.2,-15.7,96,4.045,4.032,4.036,0,0,0,9.997,77,943.02759644985,15.419948,6,P-GPS,
7900,2022-07-04 22:37:26,40.4412189976102,-79.9468823572308,15.748032,,,943.35568044985,17.060368,0,0.7197670834,4.4770998808,16,5,11.84,943.35568044985,15.748032,0.223694,1.09054793516,0,0,-2.908022,192.3, -3.9, 0.6,0,0,1024,1024,1316,1024,0,0,44,0,193.2,-15.7,96,4.045,4.032,4.036,0,0,0,9.997,77,943.35568044985,15.748032,6,P-GPS,
8000,2022-07-04 22:37:26,40.4412190460228,-79.946882340289,16.4042,,,944.01184844985,17.388452,0,0.7258694458,4.4953741596,17,5,11.84,944.01184844985,16.4042,0.223694,1.09054793516,0,0,-2.908022,192.2, -4, 0.7,0,0,1024,1024,1301,1024,0,0,42,0,193.2,-15.7,96,4.045,4.032,4.036,0,0,0,9.997,77,944.01184844985,16.4042,6,P-GPS,
8100,2022-07-04 22:37:26,40.4412191145557,-79.9468822771718,16.732284,,,944.33993244985,18.04462,0,0.74598427584,4.52591878,17,5,11.84,944.33993244985,16.732284,0.223694,1.09054793516,0,0,-2.908022,192.2, -3.9, 1,0,0,1024,1024,1301,1024,0,0,42,0,193.2,-15.7,96,4.045,4.032,4.036,0,0,0,9.997,77,944.33993244985,16.732284,6,P-GPS,
8200,2022-07-04 22:37:26,40.4412191320277,-79.946882254785,17.060368,,,944.66801644985,18.372704,0,0.75295606084,4.5348426648,17,5,11.84,944.66801644985,17.060368,0.223694,1.09054793516,0,0,-2.908022,192.3, -3.6, 1.6,0,0,1024,1024,1268,1024,0,0,37,0,193.2,-15.7,96,4.045,4.032,4.036,0,0,0,9.997,77,944.66801644985,17.060368,6,P-GPS,
8300,2022-07-04 22:37:26,40.4412193823047,-79.9468826292569,17.716536,,,945.32418444985,19.028872,0,0.66989175372,4.673228496,17,5,11.84,945.32418444985,17.716536,0.223694,1.09054793516,0,0,-2.684328,192.5, -3.6, 1.6,0,0,1024,1024,1269,1024,0,0,37,0,193.2,-15.7,96,4.045,4.032,4.036,0,0,0,9.997,77,945.32418444985,17.716536,6,P-GPS,
8400,2022-07-04 22:37:26,40.4412194083676,-79.9468826845726,18.04462,,,945.65226844985,19.356956,0,0.65798230452,4.691273116,17,5,11.84,945.65226844985,18.04462,0.223694,1.09054793516,0,0,-2.23694,192.5, -4, 1.1,0,0,1024,1024,1273,1024,0,0,38,0,193.2,-15.7,96,4.045,4.032,4.036,0,0,0,9.997,77,945.65226844985,18.04462,6,P-GPS,
8500,2022-07-04 22:37:26,40.4412187401416,-79.9468833804426,18.372704,,,945.98035244985,19.68504,0,0.4362861032,5.0023623648,17,5,11.84,945.98035244985,18.372704,0.223694,1.09054793516,0,0,-2.013246,192.4, -3.9, 0.7,0,0,1024,1024,1285,1024,0,0,40,0,193.2,-15.7,96,4.045,4.032,4.036,0,0,0,9.997,77,945.98035244985,18.372704,6,P-GPS,
8600,2022-07-04 22:37:26,40.4412186755596,-79.9468835216824,18.700788,,,946.30843644985,20.013124,0,0.40064305744,5.0481300828,17,5,11.84,946.30843644985,18.700788,0.223694,1.09054793516,0,0,-1.789552,192.3, -3.5, 0.3,0,0,1024,1024,1296,1024,0,0,41,0,193.2,-15.7,96,4.045,4.032,4.036,0,0,0,9.997,77,946.30843644985,18.700788,6,P-GPS,
8700,2022-07-04 22:37:26,40.4412188025567,-79.9468829790403,19.028872,,,946.63652044985,20.341208,0,0.54587928256,5.2057744448,17,5,11.84,946.63652044985,19.028872,0.223694,1.09054793516,0,0,-2.013246,192.2, -3.1, 0.2,0,0,1024,1024,1309,1024,0,0,43,0,193.2,-15.7,96,4.045,4.032,4.036,0,0,0,9.997,77,946.63652044985,19.028872,6,P-GPS,
8800,2022-07-04 22:37:26,40.4412187219202,-79.9468830681349,19.356956,,,946.96460444985,20.669292,0,0.52323492488,5.2441930812,17,5,12.173,946.96460444985,19.356956,0.223694,1.09054793516,0,0,-2.013246,192.1, -2.5, 0.1,0,0,1024,1024,1343,1024,0,0,48,0,193.2,-15.7,96,4.027,4.014,4.013,0,0,0,6.258,77,946.96460444985,19.356956,6,P-GPS,
8900,2022-07-04 22:37:27,40.4412185421569,-79.946883438121,19.68504,,,947.29268844985,21.32546,0,0.43405841284,5.3660762872,17,5,12.173,947.29268844985,19.68504,0.223694,1.09054793516,0,0,-2.460634,192.1, -2.5, 0.2,0,0,1024,1024,1343,1024,0,0,48,0,193.2,-15.7,96,4.027,4.014,4.013,0,0,0,6.258,77,947.29268844985,19.68504,6,P-GPS,
9000,2022-07-04 22:37:27,40.4412184474232,-79.9468835328254,20.013124,,,947.62077244985,21.653544,0,0.42000657512,5.4095146088,17,5,12.173,947.62077244985,20.013124,0.223694,1.09054793516,0,0,-2.684328,192, -2.6, 0.5,0,0,1024,1024,1353,1024,0,0,50,0,193.2,-15.7,96,4.027,4.014,4.013,0,0,0,6.258,77,947.62077244985,20.013124,6,P-GPS,
9100,2022-07-04 22:37:27,40.4412185476592,-79.9468837565919,20.341208,,,947.94885644985,21.981628,0,0.34905184844,5.481627472,17,5,12.173,947.94885644985,20.341208,0.223694,1.09054793516,0,0,-3.131716,192, -2.8, 0.7,0,0,1024,1024,1365,1024,0,0,52,0,193.2,-15.7,96,4.027,4.014,4.013,0,0,0,6.258,77,947.94885644985,20.341208,6,P-GPS,
9200,2022-07-04 22:37:27,40.4412184528867,-79.9468838638296,20.669292,,,948.27694044985,22.637796,0,0.33504594248,5.5272639564,17,5,12.173,948.27694044985,20.669292,0.223694,1.09054793516,0,0,-3.35541,192.2, -2.4, 0.8,0,0,1024,1024,1372,1024,0,0,53,0,193.2,-15.7,96,4.027,4.014,4.013,0,0,0,6.258,77,948.27694044985,20.669292,6,P-GPS,
9300,2022-07-04 22:37:27,40.4412184256071,-79.9468837601928,21.32546,,,948.93310844985,22.96588,0,0.36526247888,5.5577101516,17,5,12.173,948.93310844985,21.32546,0.223694,1.09054793516,0,0,-3.579104,192.2, -2, 0.9,0,0,1024,1024,1374,1024,0,0,53,0,193.2,-15.7,96,4.027,4.014,4.013,0,0,0,6.258,77,948.93310844985,21.32546,6,P-GPS,
9400,2022-07-04 22:37:27,40.4412183375691,-79.9468838538863,21.981628,,,949.58927644985,23.622048,0,0.35817258364,5.5990487356,17,5,12.173,949.58927644985,21.981628,0.223694,1.09054793516,0,0,-3.802798,192.2, -2.2, 0.8,0,0,1024,1024,1375,1024,0,0,53,0,193.2,-15.7,96,4.027,4.014,4.013,0,0,0,6.258,77,949.58927644985,21.981628,6,P-GPS,
9500,2022-07-04 22:37:27,40.4412189764738,-79.9468838205626,22.637796,,,950.24544444985,24.278216,0,0.31448819904,5.8323164596,17,5,12.173,950.24544444985,22.637796,0.223694,1.09054793516,0,0,-3.802798,192.3, -1.8, 1.2,0,0,1024,1024,1379,1024,0,0,54,0,193.2,-15.7,96,4.027,4.014,4.013,0,0,0,6.258,77,950.24544444985,22.637796,6,P-GPS,
9600,2022-07-04 22:37:27,40.4412189635305,-79.9468839180379,22.96588,,,950.57352844985,24.6063,0,0.287038066928,5.8598098988,17,5,12.173,950.57352844985,22.96588,0.223694,1.09054793516,0,0,-4.026492,192.4, -2, 1,0,0,1024,1024,1380,1024,0,0,54,0,193.2,-15.7,96,4.027,4.014,4.013,0,0,0,6.258,77,950.57352844985,22.96588,6,P-GPS,
9700,2022-07-04 22:37:27,40.4412187547581,-79.9468842485991,23.622048,,,951.22969644985,25.262468,0,0.196918969556,5.9790684328,17,5,12.173,951.22969644985,23.622048,0.223694,1.09054793516,0,0,-4.026492,192.5, -2.3, 0.8,0,0,1024,1024,1380,1024,0,0,54,0,193.2,-15.7,96,4.027,4.014,4.013,0,0,0,6.258,77,951.22969644985,23.622048,6,P-GPS,
9800,2022-07-04 22:37:27,40.4412187481559,-79.9468844004987,24.278216,,,951.88586444985,25.918636,0,0.156459322592,6.021325652,16,5,12.157,951.88586444985,24.278216,0.223694,1.09054793516,0,0,-4.026492,192.5, -2.3, 0.4,0,0,1024,1024,1380,1024,0,0,54,0,193.2,-15.7,96,4.018,4.002,4.005,0,0,0,6.821,77.18,951.88586444985,24.278216,6,P-GPS,
9900,2022-07-04 22:37:28,40.4412190492711,-79.946884406175,24.934384,,,952.54203244985,26.574804,0,0.163875005244,6.1312009836,16,5,12.157,952.54203244985,24.934384,0.223694,1.09054793516,0,0,-4.026492,192.4, -2, 0,0,0,1024,1024,1384,1024,0,0,55,0,193.2,-15.7,96,4.018,4.002,4.005,0,0,0,6.821,77.18,952.54203244985,24.934384,6,P-GPS,
10000,2022-07-04 22:37:28,40.4412191041309,-79.9468845663631,25.590552,,,953.19820044985,26.902888,0,0.136687668416,6.1799870744,17,5,12.157,953.19820044985,25.590552,0.223694,1.09054793516,0,0,-4.026492,192.1, -2.6, -0.4,0,0,1024,1024,1422,1024,0,0,60,0,193.2,-15.7,96,4.018,4.002,4.005,0,0,0,6.821,77.18,953.19820044985,25.590552,6,P-GPS,
10100,2022-07-04 22:37:28,40.4412193447217,-79.9468843664845,26.24672,,,953.85436844985,27.559056,0,0.237741477424,6.2838256604,17,5,12.157,953.85436844985,26.24672,0.223694,1.09054793516,0,0,-4.250186,191.8, -3.3, -0.6,0,0,1024,1024,1636,1024,0,0,93,0,193.2,-15.7,96,4.018,4.002,4.005,0,0,0,6.821,77.18,953.85436844985,26.24672,6,P-GPS,
10200,2022-07-04 22:37:28,40.4412194301976,-79.9468844908115,26.902888,,,954.51053644985,28.215224,0,0.242042002496,6.3303479716,17,5,12.157,954.51053644985,26.902888,0.223694,1.09054793516,0,0,-4.697574,191.6, -3.3, -0.7,0,0,1024,1024,1627,1024,0,0,91,0,193.2,-15.7,96,4.018,4.002,4.005,0,0,0,6.821,77.18,954.51053644985,26.902888,6,P-GPS,
10300,2022-07-04 22:37:28,40.4412195562466,-79.9468844057025,27.559056,,,955.16670444985,28.871392,0,0.293639773176,6.38205401,17,5,12.157,955.16670444985,27.559056,0.223694,1.09054793516,0,0,-5.59235,191.5, -3.1, -0.8,0,0,1024,1024,1641,1024,0,0,93,0,193.2,-15.7,96,4.018,4.002,4.005,0,0,0,6.821,77.18,955.16670444985,27.559056,6,P-GPS,
10400,2022-07-04 22:37:28,40.4412196288762,-79.9468844917262,28.543308,,,956.15095644985,29.855644,0,0.306213592476,6.4177167408,17,5,12.157,956.15095644985,28.543308,0.223694,1.09054793516,0,0,-6.71082,191.5, -3, -0.7,0,0,1024,1024,1674,1024,0,0,98,0,193.2,-15.7,96,4.018,4.002,4.005,0,0,0,6.821,77.18,956.15095644985,28.543308,6,P-GPS,
10500,2022-07-04 22:37:28,40.4412191307312,-79.9468854915859,29.52756,,,957.13520844985,30.839896,0,0.180850071404,6.7495737068,17,5,12.157,957.13520844985,29.52756,0.223694,1.09054793516,0,0,-7.82929,191.4, -2.8, -0.6,0,0,1024,1024,1684,1024,0,0,100,0,193.2,-15.7,96,4.018,4.002,4.005,0,0,0,6.821,77.18,957.13520844985,29.52756,6,P-GPS,
10600,2022-07-04 22:37:28,40.4412191487793,-79.9468856265826,30.839896,,,958.44754444985,32.152232,0,0.216459324512,6.7876314508,15,5,12.157,958.44754444985,30.839896,0.223694,1.09054793516,0,0,-8.94776,191.5, -2.3, -0.4,0,0,1024,1024,1684,1024,0,0,100,0,193.2,-15.7,96,4.018,4.002,4.005,0,0,0,6.821,77.18,958.44754444985,30.839896,6,P-GPS,
10700,2022-07-04 22:37:28,40.4412195189164,-79.946885029575,32.152232,,,959.75988044985,33.464568,0,0.240439312156,7.0014437936,15,5,12.157,959.75988044985,32.152232,0.223694,1.09054793516,0,0,-10.06623,192.1, -2.9, -0.2,0,0,1024,1024,1684,1024,0,0,100,0,193.2,-15.7,96,4.018,4.002,4.005,0,0,0,6.821,77.18,959.75988044985,32.152232,6,P-GPS,
10800,2022-07-04 22:37:29,40.4412195910841,-79.9468850726315,33.792652,,,961.40030044985,34.776904,0,0.26799049414,7.030347994,16,5,11.981,961.40030044985,33.792652,0.223694,1.09054793516,0,0,-11.1847,192.4, -3.2, -0.4,0,0,1024,1024,1684,1024,0,0,100,0,193.2,-15.7,96,3.846,3.824,3.828,0,0,0,8.554,77.18,961.40030044985,33.792652,6,P-GPS,
10900,2022-07-04 22:37:29,40.4412180645756,-79.9468871601301,35.433072,,,963.04072044985,36.417324,0,0.6810367672,7.8342194108,16,5,11.981,963.04072044985,35.433072,0.223694,1.09054793516,0,0,-12.30317,192.3, -4.1, 0.1,0,0,1024,1024,1684,1024,0,0,100,0,193.2,-15.7,96,3.846,3.824,3.828,0,0,0,8.554,77.18,963.04072044985,35.433072,6,P-GPS,
11000,2022-07-04 22:37:29,40.4412179885491,-79.9468873684059,37.401576,,,965.00922444985,37.72966,0,0.7451771892,7.8983598328,17,5,11.981,965.00922444985,37.401576,0.223694,1.09054793516,0,0,-12.750558,192.4, -4.7, 0.1,0,0,1024,1024,1684,1024,0,0,100,0,193.2,-15.7,96,3.846,3.824,3.828,0,0,0,8.554,77.18,965.00922444985,37.401576,6,P-GPS,
11100,2022-07-04 22:37:29,40.4412178028561,-79.946887163482,39.37008,,,966.97772844985,39.698164,0,0.72781826476,7.9868440876,17,5,11.981,966.97772844985,39.37008,0.223694,1.09054793516,0,0,-13.197946,192.4, -4.3, 0.2,0,0,1024,1024,1669,1024,0,0,98,0,193.2,-15.7,96,3.846,3.824,3.828,0,0,0,8.554,77.18,966.97772844985,39.37008,6,P-GPS,
11200,2022-07-04 22:37:29,40.4412176805002,-79.9468873712582,41.338584,,,968.94623244985,41.666668,0,0.80044950068,8.0597771608,17,5,11.981,968.94623244985,41.338584,0.223694,1.09054793516,0,0,-13.197946,192.5, -3.9, 0.4,0,0,1024,1024,1665,1024,0,0,97,0,193.2,-15.7,96,3.846,3.824,3.828,0,0,0,8.554,77.18,968.94623244985,41.338584,6,P-GPS,
11300,2022-07-04 22:37:29,40.4412177878886,-79.9468874838829,42.979004,,,970.58665244985,43.635172,0,0.80720803108,8.109908396,17,5,11.981,970.58665244985,42.979004,0.223694,1.09054793516,0,0,-12.974252,192.6, -3.3, 0.9,0,0,1024,1024,1641,1024,0,0,93,0,193.2,-15.7,96,3.846,3.824,3.828,0,0,0,8.554,77.18,970.58665244985,42.979004,6,P-GPS,
11400,2022-07-04 22:37:29,40.4412176978922,-79.9468877052825,44.947508,,,972.55515644985,45.603676,0,0.87689635352,8.1795934376,17,5,11.981,972.55515644985,44.947508,0.223694,1.09054793516,0,0,-12.974252,192.7, -3.3, 0,0,0,1024,1024,1627,1024,0,0,91,0,193.2,-15.7,96,3.846,3.824,3.828,0,0,0,8.554,77.18,972.55515644985,44.947508,6,P-GPS,
11500,2022-07-04 22:37:29,40.4412175485846,-79.9468876984597,46.916012,,,974.52366044985,47.57218,0,0.90295934648,8.2341209984,17,5,11.981,974.52366044985,46.916012,0.223694,1.09054793516,0,0,-12.750558,192.6, -4, -0.7,0,0,1024,1024,1603,1024,0,0,88,0,193.2,-15.7,96,3.846,3.824,3.828,0,0,0,8.554,77.18,974.52366044985,46.916012,6,P-GPS,
11600,2022-07-04 22:37:29,40.4412174915865,-79.9468878868613,48.884516,,,976.49216444985,49.540684,0,0.9583825766,8.2904202128,17,5,11.981,976.49216444985,48.884516,0.223694,1.09054793516,0,0,-12.30317,192.4, -4.8, -0.5,0,0,1024,1024,1603,1024,0,0,88,0,193.2,-15.7,96,3.846,3.824,3.828,0,0,0,8.554,77.18,976.49216444985,48.884516,6,P-GPS,
11700,2022-07-04 22:37:29,40.4412179367409,-79.9468873280787,50.524936,,,978.13258444985,51.181104,0,0.74347443324,8.5150265192,17,5,11.981,978.13258444985,50.524936,0.223694,1.09054793516,0,0,-11.632088,192.2, -5.3, 0.3,0,0,1024,1024,1609,1024,0,0,89,0,193.2,-15.7,96,3.846,3.824,3.828,0,0,0,8.554,77.18,978.13258444985,50.524936,6,P-GPS,
11800,2022-07-04 22:37:29,40.4412179369509,-79.9468874486906,52.165356,,,979.77300444985,52.821524,0,0.77342194076,8.5485238956,17,5,11.747,979.77300444985,52.165356,0.223694,1.09054793516,0,0,-11.1847,192.4, -5.6, -0.5,0,0,1024,1024,1603,1024,0,0,88,0,193.2,-15.7,96,4.01,4.01,4.016,0,0,0,9.934,77.18,979.77300444985,52.165356,6,P-GPS,
11900,2022-07-04 22:37:30,40.4412184244002,-79.9468872718091,53.805776,,,981.41342444985,54.461944,0,0.66609582184,8.7330383372,17,5,11.747,981.41342444985,53.805776,0.223694,1.09054793516,0,0,-10.961006,192.3, -5.4, -0.9,0,0,1024,1024,1524,1024,0,0,76,0,193.2,-15.7,96,4.01,4.01,4.016,0,0,0,9.934,77.18,981.41342444985,53.805776,6,P-GPS,
12000,2022-07-04 22:37:30,40.4412184533981,-79.9468873727466,55.446196,,,983.05384444985,55.77428,0,0.69096786988,8.7629924064,17,5,11.747,983.05384444985,55.446196,0.223694,1.09054793516,0,0,-10.513618,192.1, -5.8, 0,0,0,1024,1024,1397,1024,0,0,57,0,193.2,-15.7,96,4.01,4.01,4.016,0,0,0,9.934,77.18,983.05384444985,55.446196,6,P-GPS,
12100,2022-07-04 22:37:30,40.4412187369637,-79.9468871546979,57.086616,,,984.69426444985,57.4147,0,0.61577429792,8.8828414916,17,5,11.747,984.69426444985,57.086616,0.223694,1.09054793516,0,0,-9.618842,192.2, -6, -0.3,0,0,1024,1024,1533,1024,0,0,77,0,193.2,-15.7,96,4.01,4.01,4.016,0,0,0,9.934,77.18,984.69426444985,57.086616,6,P-GPS,
12200,2022-07-04 22:37:30,40.4412187910125,-79.9468872330085,58.398952,,,986.00660044985,58.398952,0,0.63634188388,8.9122050096,17,5,11.747,986.00660044985,58.398952,0.223694,1.09054793516,0,0,-8.724066,192.2, -6.1, -0.2,0,0,1024,1024,1525,1024,0,0,76,0,193.2,-15.7,96,4.01,4.01,4.016,0,0,0,9.934,77.18,986.00660044985,58.398952,6,P-GPS,
12300,2022-07-04 22:37:30,40.4412192978262,-79.9468870850283,59.711288,,,987.31893644985,59.711288,0,0.615485584,9.1016407112,17,5,11.747,987.31893644985,59.711288,0.223694,1.09054793516,0,0,-8.276678,192.3, -6, -1.3,0,0,1024,1024,1024,1024,0,0,0,0,193.2,-15.7,96,4.01,4.01,4.016,0,0,0,9.934,77.18,987.31893644985,59.711288,6,P-GPS,
12400,2022-07-04 22:37:30,40.4412193602055,-79.9468871505356,60.69554,,,988.30318844985,60.69554,0,0.63916012544,9.1307745704,17,5,11.747,988.30318844985,60.69554,0.223694,1.09054793516,0,0,-8.276678,192, -5.4, -0.7,0,0,1024,1024,1024,1024,0,0,0,0,193.2,-15.7,96,4.01,4.01,4.016,0,0,0,9.934,77.18,988.30318844985,60.69554,6,P-GPS,
12500,2022-07-04 22:37:30,40.4412197892094,-79.9468868643306,62.007876,,,989.61552444985,61.679792,0,0.63141734304,9.3062995104,17,5,11.747,989.61552444985,62.007876,0.223694,1.09054793516,0,0,-7.605596,192, -5.7, 0,0,0,1024,1024,1024,1024,0,0,0,0,193.2,-15.7,96,4.01,4.01,4.016,0,0,0,9.934,77.18,989.61552444985,62.007876,6,P-GPS,
12600,2022-07-04 22:37:30,40.4412198803712,-79.9468868993025,62.992128,,,990.59977644985,62.664044,0,0.65781826252,9.3409451808,17,5,11.747,990.59977644985,62.992128,0.223694,1.09054793516,0,0,-6.71082,192.2, -5.5, 0.3,0,0,1024,1024,1024,1024,0,0,0,0,193.2,-15.7,96,4.01,4.01,4.016,0,0,0,9.934,77.18,990.59977644985,62.992128,6,P-GPS,
12700,2022-07-04 22:37:30,40.4412202280133,-79.9468865249965,63.97638,,,991.58402844985,63.648296,0,0.66396983752,9.5049543724,17,5,11.747,991.58402844985,63.97638,0.223694,1.09054793516,0,0,-5.816044,192.4, -5.4, -0.3,0,0,1024,1024,1024,1024,0,0,0,0,193.2,-15.7,95,4.01,4.01,4.016,0,0,0,9.934,77.18,991.58402844985,63.97638,6,P-GPS,
12800,2022-07-04 22:37:30,40.4412203695636,-79.9468865706203,64.960632,,,992.56828044985,64.632548,0,0.71150920912,9.5581039804,17,5,11.73,992.56828044985,64.960632,0.223694,1.09054793516,0,0,-4.921268,192.4, -5.8, -0.1,0,0,1441,1024,1024,1024,63,0,0,0,193.2,-15.7,95,4.085,4.077,4.078,0,0,0,14.2,77.36,992.56828044985,64.960632,6,P-GPS,
12900,2022-07-04 22:37:31,40.4412209768857,-79.9468864966759,65.6168,,,993.22444844985,65.288716,0.223694,0.883612233,9.7806433576,17,5,11.73,993.22444844985,65.6168,0.223694,1.09054793516,0,-0.223694,-3.802798,192.3, -7.4, -2.3,0,0,1684,648,1024,1024,100,-57,0,0,193.2,-15.7,95,4.085,4.077,4.078,0,0,0,14.2,77.36,993.22444844985,65.6168,6,P-GPS,
13000,2022-07-04 22:37:31,40.4412211671803,-79.9468865881648,65.944884,,,993.55253244985,65.944884,0.223694,0.95667982064,9.8545934912,17,5,11.73,993.55253244985,65.944884,0.223694,1.09054793516,0,-0.223694,-2.684328,192.3, -21.9, -2.6,0,0,1684,657,1024,1024,100,-56,0,0,193.2,-15.7,95,4.085,4.077,4.078,0,0,0,14.2,77.36,993.55253244985,65.944884,6,P-GPS,
13100,2022-07-04 22:37:31,40.4412211144104,-79.9468865646997,66.272968,,,993.88061644985,66.272968,0.3131716,0.93666013496,9.8749018908,17,5,11.73,993.88061644985,66.272968,0.3131716,1.09054793516,-0.223694,-0.223694,-1.565858,193.2, -29.7, -4.2,0,0,1684,776,1024,1024,100,-38,0,0,193.2,-15.7,95,4.085,4.077,4.078,0,0,0,14.2,77.36,993.88061644985,66.272968,6,P-GPS,
13200,2022-07-04 22:37:31,40.4412210100261,-79.9468867193209,66.601052,,,994.20870044985,66.272968,1.006623,0.92559386164,9.9322837824,17,5,11.73,994.20870044985,66.601052,1.006623,1.09054793516,-0.894776,-0.447388,-0.671082,193.8, -29.8, -3.6,0,0,1684,968,1024,1024,100,-8,0,0,193.2,-15.7,95,4.085,4.077,4.078,0,0,0,14.2,77.36,994.20870044985,66.601052,6,P-GPS,
13300,2022-07-04 22:37:31,40.441220530124,-79.9468868448987,66.601052,,,994.20870044985,66.272968,1.6329662,0.80541669244,10.1108270952,17,5,11.73,994.20870044985,66.601052,1.6329662,1.09054793516,-1.565858,-0.447388,-0.223694,193.9, -29.3, -2.3,0,0,1684,1023,1024,1024,100,-0,0,0,193.2,-15.7,95,4.085,4.077,4.078,0,0,0,14.2,77.36,994.20870044985,66.601052,6,P-GPS,
13400,2022-07-04 22:37:31,40.4412198068433,-79.9468871635415,66.601052,,,994.20870044985,52.49344,2.6172198,0.70612863152,10.3891407524,17,5,11.73,994.20870044985,66.601052,2.6172198,1.09054793516,-2.460634,-0.894776,0,193.7, -28.7, -1.5,0,0,1684,1023,1024,1024,100,-0,0,0,193.2,-15.7,95,4.085,4.077,4.078,0,0,0,14.2,77.36,994.20870044985,66.601052,6,P-GPS,
13500,2022-07-04 22:37:31,40.4412186213857,-79.9468876837639,66.601052,,,994.20870044985,52.49344,3.5343652,0.76605645496,10.845144704,17,5,11.73,994.20870044985,66.601052,3.5343652,1.09054793516,-3.35541,-1.11847,0,193.6, -28.7, -2.3,0,0,1684,1024,1024,1024,100,0,0,0,193.2,-15.7,95,4.085,4.077,4.078,0,0,0,14.2,77.36,994.20870044985,66.601052,6,P-GPS,
13600,2022-07-04 22:37:31,40.4412171753911,-79.9468882629988,66.601052,,,994.20870044985,52.165356,4.4515106,1.1085630276,11.3966867164,17,5,11.73,994.20870044985,66.601052,4.4515106,1.1085630276,-4.250186,-1.342164,0,193.5, -28.8, -2.6,0,0,1684,1024,1024,1024,100,0,0,0,193.2,-15.7,95,4.085,4.077,4.078,0,0,0,14.2,77.36,994.20870044985,66.601052,6,P-GPS,
13700,2022-07-04 22:37:31,40.4412156946928,-79.946889277853,66.601052,,,994.20870044985,52.49344,5.3239172,1.66884519776,12.0060043212,17,5,11.73,994.20870044985,66.601052,5.3239172,1.66884519776,-5.144962,-1.342164,0,192.7, -28.6, -2.8,0,0,1684,1024,1024,1024,100,0,0,0,193.2,-15.7,95,4.085,4.077,4.078,0,0,0,14.2,77.36,994.20870044985,66.601052,6,P-GPS,
13800,2022-07-04 22:37:31,40.4412135572182,-79.9468900686778,66.601052,,,994.20870044985,52.49344,6.2410626,2.40272973568,12.8162077592,17,5,12.117,994.20870044985,66.601052,6.2410626,2.40272973568,-6.039738,-1.565858,0,192.7, -27.9, -2.8,0,0,1684,970,1024,1024,100,-8,0,0,193.2,-15.7,95,4.011,3.995,4,0,0,0,7.866,77.36,994.20870044985,66.601052,6,P-GPS,
13900,2022-07-04 22:37:32,40.4412113082436,-79.9468908027194,66.601052,,,994.20870044985,53.149608,7.158208,3.20078422316,13.6616802272,17,5,12.117,994.20870044985,66.601052,7.158208,3.20078422316,-6.934514,-1.789552,0,192.4, -28.2, -2.6,0,0,1684,973,1024,1024,100,-8,0,0,193.2,-15.7,95,4.011,3.995,4,0,0,0,7.866,77.36,994.20870044985,66.601052,6,P-GPS,
14000,2022-07-04 22:37:32,40.4412085371506,-79.9468917421384,66.601052,,,994.20870044985,53.149608,8.0306146,4.2140093212,14.7058075572,17,5,12.117,994.20870044985,66.601052,8.0306146,4.2140093212,-7.82929,-1.789552,0,192.3, -28.4, -2.5,0,0,1684,968,1024,1024,100,-8,0,0,193.2,-15.7,95,4.011,3.995,4,0,0,0,7.866,77.36,994.20870044985,66.601052,6,P-GPS,
14100,2022-07-04 22:37:32,40.4412056523541,-79.9468925735844,66.601052,,,994.20870044985,53.149608,8.7464354,5.265092032,15.7833338384,17,5,12.117,994.20870044985,66.601052,8.7464354,5.265092032,-8.500372,-2.013246,0,192, -28.7, -2.5,0,0,1684,965,1024,1024,100,-9,0,0,193.2,-15.7,95,4.011,3.995,4,0,0,0,7.866,77.36,994.20870044985,66.601052,6,P-GPS,
14200,2022-07-04 22:37:32,40.4412022790431,-79.9468936392745,66.601052,,,994.20870044985,61.023624,9.6635808,6.5147311796,17.0491803356,17,5,12.117,994.20870044985,66.601052,9.6635808,6.5147311796,-9.395148,-2.23694,0,192, -28.7, -2.3,0,0,1684,982,1024,1024,100,-6,0,0,193.2,-15.7,95,4.011,3.995,4,0,0,0,7.866,77.36,994.20870044985,66.601052,6,P-GPS,
14300,2022-07-04 22:37:32,40.4411985931804,-79.9468948500479,66.601052,,,994.20870044985,61.679792,10.3122934,7.8905514336,18.4353352356,17,5,12.117,994.20870044985,66.601052,10.3122934,7.8905514336,-10.06623,-2.23694,0,192.1, -29.1, -2.2,0,0,1684,982,1024,1024,100,-6,0,0,193.2,-15.7,95,4.011,3.995,4,0,0,0,7.866,77.36,994.20870044985,66.601052,6,P-GPS,
14400,2022-07-04 22:37:32,40.4411946288085,-79.9468960755393,66.601052,,,994.20870044985,62.007876,10.3122934,9.3666669664,19.9212276716,17,5,12.117,994.20870044985,66.601052,10.3122934,9.3666669664,-10.737312,-2.460634,0,192.1, -29.2, -2.2,0,0,1684,990,1024,1024,100,-5,0,0,193.2,-15.7,95,4.011,3.995,4,0,0,0,7.866,77.36,994.20870044985,66.601052,6,P-GPS,
14500,2022-07-04 22:37:32,40.4411902062898,-79.946897542895,66.272968,,,993.88061644985,62.33596,11.9452596,11.02526282,21.5854337616,17,5,12.117,994.20870044985,66.601052,11.9452596,11.02526282,-11.632088,-2.684328,0,192, -29.2, -2.1,0,0,1684,991,1024,1024,100,-5,0,0,193.2,-15.7,95,4.011,3.995,4,0,0,0,7.866,77.36,993.88061644985,66.272968,6,P-GPS,
14600,2022-07-04 22:37:32,40.4411856529546,-79.9468989171454,66.272968,,,993.88061644985,73.8189,12.5939722,12.7228678612,23.2899941836,17,5,12.117,994.20870044985,66.601052,12.5939722,12.7228678612,-12.30317,-2.684328,0,192, -29.4, -2.1,0,0,1684,986,1024,1024,100,-6,0,0,193.2,-15.7,95,4.011,3.995,4,0,0,0,7.866,77.36,993.88061644985,66.272968,6,P-GPS,
14700,2022-07-04 22:37:32,40.4411805848645,-79.9469006185272,66.272968,,,993.88061644985,74.146984,13.2874236,14.6283797332,25.1984588116,17,5,12.117,994.20870044985,66.601052,13.2874236,14.6283797332,-12.974252,-2.908022,0,191.8, -29.2, -1.9,0,0,1684,988,1024,1024,100,-5,0,0,193.2,-15.7,95,4.011,3.995,4,0,0,0,7.866,77.36,993.88061644985,66.272968,6,P-GPS,
14800,2022-07-04 22:37:32,40.4411754718425,-79.9469021370048,66.272968,,,993.88061644985,74.475068,13.9585056,16.5355320252,27.1110244896,17,5,12.117,994.20870044985,66.601052,13.9585056,16.5355320252,-13.645334,-2.908022,0,191.6, -29.2, -2.3,0,0,1684,1001,1024,1024,100,-3,0,0,193.2,-15.7,95,4.011,3.995,4,0,0,0,7.866,77.36,993.88061644985,66.272968,6,P-GPS,
14900,2022-07-04 22:37:33,40.4411703981027,-79.9469035430435,66.272968,,,993.88061644985,74.475068,14.651957,18.4212932404,29.0028880672,17,5,12.098,994.20870044985,66.601052,14.651957,18.4212932404,-14.316416,-3.131716,0,191.9, -29.3, -1.9,0,0,1684,1009,1420,1024,100,-2,60,0,193.2,-15.7,95,3.976,3.959,3.967,0,0,0,5.465,77.54,993.88061644985,66.272968,6,P-GPS,
15000,2022-07-04 22:37:33,40.4411648188299,-79.9469051742569,66.272968,,,993.88061644985,74.475068,15.1440838,20.5026909448,31.088255588,17,5,12.098,994.20870044985,66.601052,15.1440838,20.5026909448,-14.763804,-3.35541,0,192.2, -29.6, -1.9,0,0,1684,1024,1431,1024,100,0,62,0,193.2,-15.7,95,3.976,3.959,3.967,0,0,0,5.465,77.54,993.88061644985,66.272968,6,P-GPS,
15100,2022-07-04 22:37:33,40.4411580242672,-79.9469072754386,66.272968,,,993.88061644985,74.146984,16.0612292,23.0469495564,33.634843596,17,5,12.098,994.20870044985,66.601052,16.0612292,23.0469495564,-15.65858,-3.579104,-0.223694,192.2, -28.5, -2.2,0,0,1684,1024,1431,1024,100,0,62,0,193.2,-15.7,95,3.976,3.959,3.967,0,0,0,5.465,77.54,993.88061644985,66.272968,6,P-GPS,
15200,2022-07-04 22:37:33,40.4411517781778,-79.9469090857671,66.272968,,,993.88061644985,74.146984,16.9336358,25.3773958252,35.968505088,17,5,12.098,994.20870044985,66.601052,16.9336358,25.3773958252,-16.553356,-3.579104,-1.11847,191.8, -27.4, -2.3,0,0,1684,1024,1457,1024,100,0,66,0,193.2,-15.7,95,3.976,3.959,3.967,0,0,0,5.465,77.54,993.88061644985,66.272968,6,P-GPS,
15300,2022-07-04 22:37:33,40.4411455035357,-79.9469109592754,66.601052,,,994.20870044985,74.803152,17.8060424,27.7229995748,38.316274192,17,5,12.098,994.20870044985,66.601052,17.8060424,27.7229995748,-17.448132,-3.579104,-2.013246,192, -28.5, -1.6,0,0,1684,1024,1464,1024,100,0,67,0,193.2,-15.7,95,3.976,3.959,3.967,0,0,0,5.465,77.54,994.20870044985,66.601052,6,P-GPS,
15400,2022-07-04 22:37:33,40.4411385451208,-79.9469128606035,66.929136,,,994.53678444985,75.131236,18.7231878,30.312008844,40.909450128,17,5,12.098,994.53678444985,66.929136,18.7231878,30.312008844,-18.342908,-3.802798,-3.131716,192.1, -29.2, -1.7,0,0,1684,1024,1471,1024,100,0,68,0,193.2,-15.7,95,3.976,3.959,3.967,0,0,0,5.465,77.54,994.53678444985,66.929136,6,P-GPS,
15500,2022-07-04 22:37:33,40.4411313736601,-79.9469148547106,67.25722,,,994.86486844985,75.787404,19.6179638,32.983268772,43.583990896,17,5,12.098,994.86486844985,67.25722,19.6179638,32.983268772,-19.237684,-3.802798,-4.026492,191.8, -29.8, -1.2,0,0,1684,1024,1501,1024,100,0,72,0,193.2,-15.7,95,3.976,3.959,3.967,0,0,0,5.465,77.54,994.86486844985,67.25722,6,P-GPS,
15600,2022-07-04 22:37:33,40.441123641246,-79.9469168833489,67.913388,,,995.52103644985,76.443572,20.7588032,35.855972276,46.460631408,17,5,12.098,995.52103644985,67.913388,20.7588032,35.855972276,-20.356154,-4.026492,-4.921268,191.8, -30.1, -1.2,0,0,1684,1024,1530,1024,100,0,77,0,193.2,-15.7,95,3.976,3.959,3.967,0,0,0,5.465,77.54,995.52103644985,67.913388,6,P-GPS,
15700,2022-07-04 22:37:33,40.4411157503924,-79.9469190649307,68.89764,,,996.50528844985,77.755908,21.4075158,38.795276832,49.40288872,17,5,12.098,996.50528844985,68.89764,21.4075158,38.795276832,-21.027236,-4.026492,-5.816044,191.5, -29.9, -0.8,0,0,1684,1024,1636,1024,100,0,93,0,193.2,-15.7,95,3.976,3.959,3.967,0,0,0,5.465,77.54,996.50528844985,68.89764,6,P-GPS,
15800,2022-07-04 22:37:34,40.4411073043759,-79.9469212239112,69.553808,,,997.16145644985,78.74016,22.3246612,41.930447536,52.541996432,17,5,11.947,997.16145644985,69.553808,22.3246612,41.930447536,-21.922012,-4.250186,-6.487126,191.5, -29.7, -0.3,0,0,1684,1024,1652,1024,100,0,95,0,193.2,-15.7,95,3.765,3.744,3.757,0,0,0,8.363,77.54,997.16145644985,69.553808,6,P-GPS,
15900,2022-07-04 22:37:34,40.4410983586845,-79.9469235227487,70.53806,,,998.14570844985,79.396328,22.3246612,45.252298036,55.86778394,17,5,11.947,998.14570844985,70.53806,22.3246612,45.252298036,-22.816788,-4.250186,-7.158208,191.5, -29.3, 0.2,0,0,1684,1024,1657,1024,100,0,96,0,193.2,-15.7,95,3.765,3.744,3.757,0,0,0,8.363,77.54,998.14570844985,70.53806,6,P-GPS,
16000,2022-07-04 22:37:34,40.4410892968862,-79.9469258172028,71.850396,,,999.45804444985,80.38058,23.9128886,48.61548712,59.234581948,17,5,11.947,999.45804444985,71.850396,23.9128886,48.61548712,-23.48787,-4.47388,-7.82929,191.4, -29.1, 0.2,0,0,1684,1024,1657,1024,100,0,96,0,193.2,-15.7,95,3.765,3.744,3.757,0,0,0,8.363,77.54,999.45804444985,71.850396,6,P-GPS,
16100,2022-07-04 22:37:34,40.4410801019542,-79.946928305513,72.834648,,,1000.4422964498,82.021,23.9128886,52.03904366,62.659778908,17,5,11.947,1000.4422964498,72.834648,23.9128886,52.03904366,-24.158952,-4.697574,-8.276678,191.3, -29, 0.5,0,0,1684,1024,1658,1024,100,0,96,0,193.2,-15.7,95,3.765,3.744,3.757,0,0,0,8.363,77.54,1000.4422964498,72.834648,6,P-GPS,
16200,2022-07-04 22:37:34,40.4410705556626,-79.9469307352837,74.146984,,,1001.7546324498,83.66142,25.053728,55.58399128,66.207679284,17,5,11.947,1001.7546324498,74.146984,25.053728,55.58399128,-24.60634,-4.697574,-8.724066,191.1, -29.4, 0.6,0,0,1684,1024,1684,1024,100,0,100,0,193.2,-15.7,95,3.765,3.744,3.757,0,0,0,8.363,77.54,1001.7546324498,74.146984,6,P-GPS,
16300,2022-07-04 22:37:34,40.4410607421269,-79.9469333990691,75.45932,,,1003.0669684498,83.66142,25.501116,59.238518956,69.863519296,17,5,11.947,1003.0669684498,75.45932,25.501116,59.238518956,-25.053728,-4.697574,-9.171454,191.1, -29.6, 0.5,0,0,1684,1024,1684,1024,100,0,100,0,193.2,-15.7,95,3.765,3.744,3.757,0,0,0,8.363,77.54,1003.0669684498,75.45932,6,P-GPS,
16400,2022-07-04 22:37:34,40.4410507747348,-79.9469359213387,76.771656,,,1004.3793044498,83.66142,26.1498286,62.939306476,73.567259572,17,5,11.947,1004.3793044498,76.771656,26.1498286,62.939306476,-25.72481,-4.697574,-9.395148,191.1, -29.6, 0.8,0,0,1684,1024,1684,1024,100,0,100,0,193.2,-15.7,95,3.765,3.744,3.757,0,0,0,8.363,77.54,1004.3793044498,76.771656,6,P-GPS,
16500,2022-07-04 22:37:34,40.4410407305344,-79.9469385016385,78.412076,,,1006.0197244498,83.66142,26.3735226,66.67159006,77.301183576,17,5,11.947,1006.0197244498,78.412076,26.3735226,66.67159006,-25.948504,-4.697574,-9.618842,191, -29.7, 1.1,0,0,1684,1024,1684,1024,100,0,100,0,193.2,-15.7,95,3.765,3.744,3.757,0,0,0,8.363,77.54,1006.0197244498,78.412076,6,P-GPS,
16600,2022-07-04 22:37:34,40.44103043182,-79.9469410778129,80.052496,,,1007.6601444498,83.66142,26.84328,70.494096744,81.125986848,17,5,11.947,1007.6601444498,80.052496,26.84328,70.494096744,-26.395892,-4.921268,-9.842536,190.7, -29.5, 2.3,0,0,1684,1024,1684,1024,100,0,100,0,193.2,-15.7,95,3.765,3.744,3.757,0,0,0,8.363,77.54,1007.6601444498,80.052496,6,P-GPS,
16700,2022-07-04 22:37:34,40.441020637662,-79.9469431889519,81.692916,,,1009.3005644498,83.66142,27.066974,74.108926256,84.74737804,17,5,11.947,1009.3005644498,81.692916,27.066974,74.108926256,-26.619586,-4.921268,-10.06623,190.6, -29.7, 2.7,0,0,1684,1024,1684,1024,100,0,100,0,193.2,-15.7,95,3.765,3.744,3.757,0,0,0,8.363,77.54,1009.3005644498,81.692916,6,P-GPS,
16800,2022-07-04 22:37:34,40.4410100884427,-79.9469458402826,83.005252,,,1010.6129004498,83.66142,27.290668,78.025593048,88.666013336,17,5,11.491,1010.6129004498,83.005252,27.290668,78.025593048,-26.84328,-4.921268,-10.289924,190.9, -29.8, 2.8,0,0,1684,1024,1684,1024,100,0,100,0,193.2,-15.7,95,3.718,3.701,3.711,0,0,0,13.31,77.72,1010.6129004498,83.005252,6,P-GPS,
16900,2022-07-04 22:37:35,40.4409997612358,-79.9469485474712,84.645672,,,1012.2533204498,83.66142,27.5591008,81.867128604,92.507876976,17,5,11.491,1012.2533204498,84.645672,27.5591008,81.867128604,-27.066974,-5.144962,-10.289924,191, -29.6, 1.7,0,0,1684,1024,1684,1024,100,0,100,0,193.2,-15.7,95,3.718,3.701,3.711,0,0,0,13.31,77.72,1012.2533204498,84.645672,6,P-GPS,
17000,2022-07-04 22:37:35,40.4409889734323,-79.9469513308126,86.286092,,,1013.8937404498,83.66142,27.7604254,85.876971252,96.51903196,17,5,11.491,1013.8937404498,86.286092,27.7604254,85.876971252,-27.290668,-5.144962,-10.513618,191, -29.5, 1.4,0,0,1684,1024,1684,1024,100,0,100,0,193.2,-15.7,95,3.718,3.701,3.711,0,0,0,13.31,77.72,1013.8937404498,86.286092,6,P-GPS,
17100,2022-07-04 22:37:35,40.4409767349836,-79.9469543269417,87.598428,,,1015.2060764498,83.66142,27.9841194,90.41666956,101.061026856,17,5,11.491,1015.2060764498,87.598428,27.9841194,90.41666956,-27.514362,-5.144962,-10.513618,190.9, -29.2, 1,0,0,1684,1024,1684,1024,100,0,100,0,193.2,-15.7,95,3.718,3.701,3.711,0,0,0,13.31,77.72,1015.2060764498,87.598428,6,P-GPS,
17200,2022-07-04 22:37:35,40.4409656548056,-79.9469571644521,89.238848,,,1016.8464964498,83.66142,28.2078134,94.534451844,105.179793392,17,5,11.491,1016.8464964498,89.238848,28.2078134,94.534451844,-27.738056,-5.144962,-10.737312,190.6, -29.6, 1.6,0,0,1684,1024,1684,1024,100,0,100,0,193.2,-15.7,95,3.718,3.701,3.711,0,0,0,13.31,77.72,1016.8464964498,89.238848,6,P-GPS,
17300,2022-07-04 22:37:35,40.4409551109147,-79.9469599812739,90.879268,,,1018.4869164498,83.66142,28.4762462,98.459976904,109.105318452,17,5,11.491,1018.4869164498,90.879268,28.4762462,98.459976904,-27.96175,-5.368656,-10.737312,190.8, -29.6, 1.6,0,0,1684,1024,1684,1024,100,0,100,0,193.2,-15.7,95,3.718,3.701,3.711,0,0,0,13.31,77.72,1018.4869164498,90.879268,6,P-GPS,
